{
  "type": "FeatureCollection",
  "features": [
    {
      "type": "Feature",
      "geometry": {
        "type": "Point",
        "coordinates": [
          175.07063213068503,
          -39.10858717411686
        ]
      },
      "properties": {
        "name": "Whakahoro Camping Ground",
        "type": "Camping",
        "memory": "Playing rummikub with Ben and Soph",
        "rating": 4,
        "photo": "",
        "with": [],
        "facilities": []
      }
    },
    {
      "type": "Feature",
      "geometry": {
        "type": "Point",
        "coordinates": [
          175.39837821534252,
          -38.996076610151206
        ]
      },
      "properties": {
        "name": "Whakapapa Scenic Reserve",
        "type": "Camping",
        "memory": "Wild camping, Mario and Saskia, Kota and Naru were there, I had a dip in the river, Becky and Louisa suprised me by appearing NOBO",
        "rating": 4,
        "photo": "",
        "with": [],
        "facilities": []
      }
    },
    {
      "type": "Feature",
      "geometry": {
        "type": "Point",
        "coordinates": [
          175.60384061349313,
          -39.04592794838131
        ]
      },
      "properties": {
        "name": "Tongariro Holiday Park",
        "type": "Camping",
        "memory": "Met Nicky here. Alaskan Mike appeared after shaving his beard off. Had a good chat with Italian Lea",
        "rating": 4,
        "photo": "",
        "with": [],
        "facilities": []
      }
    },
    {
      "type": "Feature",
      "geometry": {
        "type": "Point",
        "coordinates": [
          175.5545921269862,
          -38.515122790048935
        ]
      },
      "properties": {
        "name": "Pureora Cabins",
        "type": "Cabin",
        "memory": "Made pancakes with Saskia for Kath, Liz and Jackie! Mario appeared. I carved spoons in my own cabin until Patrick joined on night 2",
        "rating": 4,
        "photo": "",
        "with": [],
        "facilities": []
      }
    },
    {
      "type": "Feature",
      "geometry": {
        "type": "Point",
        "coordinates": [
          175.110150957661,
          -38.25989462262593
        ]
      },
      "properties": {
        "name": "Waitomo Top 10 Holiday Park",
        "type": "Camping",
        "memory": "Ran into Saskia after a long while. Met Alaskan Mike, Emily and Lizzie here. Had a nice burger over the road and saw the glow worms",
        "rating": 4,
        "photo": "",
        "with": [],
        "facilities": []
      }
    },
    {
      "type": "Feature",
      "geometry": {
        "type": "Point",
        "coordinates": [
          175.07515100554826,
          -37.93838810011368
        ]
      },
      "properties": {
        "name": "Kaniwhaniwha Campsite",
        "type": "Camping",
        "memory": "Celebrated my birthday here with the golden gang. They decorated the camp and brought me a beer and cake :))",
        "rating": 4,
        "photo": "",
        "with": [],
        "facilities": []
      }
    },
    {
      "type": "Feature",
      "geometry": {
        "type": "Point",
        "coordinates": [
          175.15297311534255,
          -37.79677212171206
        ]
      },
      "properties": {
        "name": "The Village Cafe",
        "type": "Camping",
        "memory": "We camped here in the cafe grounds. Bar over the road had a cover band (classic metal/rock but can't remember who) - actually pretty good just loud and late!",
        "rating": 4,
        "photo": "",
        "with": [],
        "facilities": []
      }
    },
    {
      "type": "Feature",
      "geometry": {
        "type": "Point",
        "coordinates": [
          175.04691018465746,
          -37.27914413648927
        ]
      },
      "properties": {
        "name": "Mercer Motel",
        "type": "Camping",
        "memory": "Weird place to camp up between a couple of highways. Reunited with Jon and Vivienne here",
        "rating": 4,
        "photo": "",
        "with": [],
        "facilities": []
      }
    },
    {
      "type": "Feature",
      "geometry": {
        "type": "Point",
        "coordinates": [
          174.7223765018494,
          -36.245607309635716
        ]
      },
      "properties": {
        "name": "Pakiri Beach Holiday Park",
        "type": "Camping",
        "memory": "A nice holiday park, I got here first after storming ahead from the group",
        "rating": 4,
        "photo": "",
        "with": [],
        "facilities": []
      }
    },
    {
      "type": "Feature",
      "geometry": {
        "type": "Point",
        "coordinates": [
          174.45780120184943,
          -35.93487437377818
        ]
      },
      "properties": {
        "name": "Uretiti Beach DOC Campsite",
        "type": "Camping",
        "memory": "Beautiful campsite, Katie and I stargazed here",
        "rating": 4,
        "photo": "",
        "with": [],
        "facilities": []
      }
    },
    {
      "type": "Feature",
      "geometry": {
        "type": "Point",
        "coordinates": [
          173.16139061534253,
          -35.16023123054686
        ]
      },
      "properties": {
        "name": "Ahipara Holiday Park",
        "type": "Cabin",
        "memory": "Got fish and chips down the road from this place after our first ever (short) hitch. Had a couple of beers in the cabin and felt good",
        "rating": 4,
        "photo": "",
        "with": [],
        "facilities": []
      }
    },
    {
      "type": "Feature",
      "geometry": {
        "type": "Point",
        "coordinates": [
          173.95931775767127,
          -35.226811333238096
        ]
      },
      "properties": {
        "name": "Hone Heke Lodge",
        "type": "Hostel",
        "memory": "Wonderful, friendly, helpful people, cannot fault them",
        "rating": 4,
        "photo": "",
        "with": [],
        "facilities": []
      }
    },
    {
      "type": "Feature",
      "geometry": {
        "type": "Point",
        "coordinates": [
          172.7034077711644,
          -34.50668644679774
        ]
      },
      "properties": {
        "name": "Twilight Beach Campsite",
        "type": "Camping",
        "memory": "The first camp! All of us were trying to work out what we were doing. Wonderful sunset",
        "rating": 4,
        "photo": "",
        "with": [],
        "facilities": []
      }
    }
  ]
}